{
    "companies": [
      {
        "id": 1,
        "name": "Apple Inc.",
        "location": {
            "region": "North America",
            "country": "United States",
            "city": "Cupertino",
            "address": "1 Apple Park Way",
            "postcode": "95014"
        },
        "logo" : "images/apple.jpg",
        "description": "Apple Inc. is a global technology company known for its iconic products like the iPhone, iPad, Mac, and software platforms like iOS and macOS. Renowned for innovation and sleek design, Apple is a leader in consumer electronics and digital services.",
        "industry": "Electronic Technology",
        "esg": {
            "e_index" : "42",
            "s_index" : "11",
            "g_index" : "72"
        },
        "marketCap" : "2950000000000"
      },
      {
        "id": 2,
        "name": "Microsoft Inc.",
        "location": {
            "region": "North America",
            "country": "United States",
            "city": "Redmond",
            "address": "1 Microsoft Way",
            "postcode": "98052"
        },
        "logo" : "images/microsoft.jpg",
        "description": "Microsoft, founded in 1975, is a global tech giant known for Windows, Office, Azure, Xbox, and Surface devices. It leads in software, hardware, and cloud services, with a strong emphasis on AI and innovation.",
        "industry": "Electronic Technology",
        "esg": {
            "e_index" : "59",
            "s_index" : "43",
            "g_index" : "76"
        },
        "marketCap" : "2796000000000"
      },
      {
        "id": 3,
        "name": "Amazon",
        "location": {
            "region": "North America",
            "country": "United States",
            "city": "Seattle",
            "address": "410 Terry Ave N",
            "postcode": "98109"
        },
        "logo" : "images/amazon.jpg",
        "description": "Amazon, founded in 1994 by Jeff Bezos, is a global e-commerce and technology giant. It's renowned for its diverse product offerings, online retail dominance, and ventures into cloud computing and streaming services through Amazon Web Services and Prime Video.",
        "industry": "Ecommerce",
        "esg": {
            "e_index" : "70",
            "s_index" : "51",
            "g_index" : "49"
        },
        "marketCap" : "1476000000000"
      },
      {
        "id": 4,
        "name": "Tesla Inc.",
        "location": {
            "region": "North America",
            "country": "United States",
            "city": "Austin",
            "address": "1 Tesla Road ",
            "postcode": "78725"
        },
        "logo" : "images/tesla.jpg",
        "description": "Tesla, founded by Elon Musk in 2003, is a leading electric vehicle and clean energy company based in California. Known for its innovative electric cars and advancements in battery technology, Tesla aims to accelerate the global transition to sustainable energy.",
        "industry": "Automotive",
        "esg": {
            "e_index" : "94",
            "s_index" : "56",
            "g_index" : "73"
        },
        "marketCap" : "742000000000"
      },
      {
        "id": 5,
        "name": "JP Morgan Chase & Co.",
        "location": {
            "region": "America",
            "country": "United States",
            "city": "New York",
            "address": "270 Park Avenue",
            "postcode": "10017"
        },
        "logo" : "images/jp_morgan.jpg",
        "description": "JPMorgan Chase & Co., or JPMorgan, is a prominent American multinational bank based in New York City. Known for its extensive financial services, it offers banking, investment, and asset management solutions globally.",
        "industry": "Financial Services",
        "esg": {
            "e_index" : "77",
            "s_index" : "42",
            "g_index" : "54"
        },
        "marketCap" : "437000000000"
      },
      {
        "id": 6,
        "name": "ASML Holdings N.V.",
        "location": {
            "region": "Europe",
            "country": "The Netherlands",
            "city": "Veldhoven",
            "address": "De Run 6501",
            "postcode": "5504 DR"
        },
        "logo" : "images/asml.jpg",
        "description": "ASML Holdings N.V. is a Dutch multinational company and a key player in the semiconductor industry. Specializing in photolithography equipment, ASML develops and manufactures cutting-edge machines critical for semiconductor manufacturing, enabling the production of smaller, more powerful microchips used in a wide range of electronic devices.",
        "industry": "Electronic Technology",
        "esg": {
            "e_index" : "85",
            "s_index" : "59",
            "g_index" : "68"
        },
        "marketCap" : "52300000"
      },
      {
        "id": 7,
        "name": "Check Point Software Technologies",
        "location": {
            "region": "Middle East",
            "country": "Israel",
            "city": " Tel Aviv-Yafo",
            "address": "Shlomo Kaplan St 5",
            "postcode": "6789159"
        },
        "logo" : "images/checkpoint.jpg",
        "description": "Check Point Software Technologies is a leading cybersecurity company based in Israel, specializing in advanced solutions like firewalls and intrusion prevention systems to protect organizations from cyber threats.",
        "industry": "Electronic Technology",
        "esg": {
            "e_index" : "45",
            "s_index" : "62",
            "g_index" : "81"
        },
        "marketCap" : "149000000"
      },
      {
        "id": 8,
        "name": "Hermes International SCA",
        "location": {
            "region": "Europe",
            "country": "France",
            "city": "Paris",
            "address": "Rue du Faubourg Saint-Honore 24",
            "postcode": "75008"
        },
        "logo" : "images/hermes.jpg",
        "description": "Hermès International SCA is a renowned French luxury goods manufacturer. Celebrated for its exquisite craftsmanship and iconic products such as Birkin and Kelly handbags, Hermès is a global symbol of high-end fashion and luxury lifestyle.",
        "industry": "Apparel/Footwear",
        "esg": {
            "e_index" : "72",
            "s_index" : "56",
            "g_index" : "78"
        },
        "marketCap" : "523000000"
      },
      {
        "id": 9,
        "name": "Kone Oyj",
        "location": {
            "region": "Europe",
            "country": "Finland",
            "city": "Espoo",
            "address": "Keilasatama 3",
            "postcode": "02150"
        },
        "logo" : "images/kone.jpg",
        "description": "Kone Oyj is a Finnish multinational company specializing in elevator and escalator manufacturing. As a global leader in the industry, Kone is recognized for its innovative solutions and sustainable urban mobility offerings, contributing to the efficiency and safety of buildings worldwide.",
        "industry": "Producer Manufacturing",
        "esg": {
            "e_index" : "62",
            "s_index" : "61",
            "g_index" : "96"
        },
        "marketCap" : "1250000000"
      },
      {
        "id": 10,
        "name": "Shionogi & Co.",
        "location": {
            "region": "Asia",
            "country": "Japan",
            "city": "Chuo-ku, Osaka",
            "address": "1-8, Doshomachi 3-chome",
            "postcode": "541-0045"
        },
        "logo" : "images/shionogi.jpg",
        "description": "Shionogi & Co., Ltd. is a prominent Japanese pharmaceutical firm renowned for its commitment to research and development in the healthcare sector, focusing on the creation of cutting-edge drugs to address global health challenges.",
        "industry": "Health Technology",
        "esg": {
            "e_index" : "73",
            "s_index" : "43",
            "g_index" : "83"
        },
        "marketCap" : "77200000000"
      }
    ]
  }
  
  